[
  {
    "id": "ph1",
    "name": "ГОРЗДРАВ Аптека №2366",
    "region_id": "MOW",
    "address": "1-й Красногвардейский проспект, 14с3",
    "lat": 55.7495,
    "lon": 37.5375,
    "schedule": "ПН-ВС 09:00–22:00",
    "phone": "+7 495 123-45-67",
    "metro": "Деловой центр",
    "is_24h": false,
    "has_parking": true,
    "services": ["самовывоз", "консультация фармацевта"]
  },
  {
    "id": "ph2",
    "name": "ГОРЗДРАВ Аптека №123",
    "region_id": "SPB",
    "address": "Невский проспект, 10",
    "lat": 59.9343,
    "lon": 30.3351,
    "schedule": "ПН-ВС 09:00–22:00",
    "phone": "+7 812 333-22-11",
    "metro": "Адмиралтейская",
    "is_24h": false,
    "has_parking": false,
    "services": ["самовывоз", "консультация фармацевта"]
  },
  {
    "id": "ph3",
    "name": "ГОРЗДРАВ Аптека №78 (Тверская)",
    "region_id": "MOW",
    "address": "Ул. Тверская, 5",
    "lat": 55.7577,
    "lon": 37.6135,
    "schedule": "ПН-ВС 08:00–23:00",
    "phone": "+7 495 987-65-43",
    "metro": "Охотный ряд",
    "is_24h": false,
    "has_parking": false,
    "services": ["самовывоз", "рецептурный отдел", "консультация фармацевта"]
  },
  {
    "id": "ph4",
    "name": "ГОРЗДРАВ Аптека №456 (у м. Курская)",
    "region_id": "MOW",
    "address": "Земляной вал, 29с1",
    "lat": 55.7582,
    "lon": 37.6591,
    "schedule": "Круглосуточно",
    "phone": "+7 495 111-22-33",
    "metro": "Курская",
    "is_24h": true,
    "has_parking": true,
    "services": ["самовывоз", "круглосуточная выдача", "рецептурный отдел"]
  },
  {
    "id": "ph5",
    "name": "ГОРЗДРАВ Аптека №789 (у м. Новокузнецкая)",
    "region_id": "MOW",
    "address": "Пятницкая ул., 40с1",
    "lat": 55.7418,
    "lon": 37.6286,
    "schedule": "ПН-ВС 08:00–22:00",
    "phone": "+7 495 444-55-66",
    "metro": "Новокузнецкая",
    "is_24h": false,
    "has_parking": false,
    "services": ["самовывоз", "консультация фармацевта"]
  },
  {
    "id": "ph6",
    "name": "ГОРЗДРАВ Аптека №321 (у м. Арбатская)",
    "region_id": "MOW",
    "address": "Новый Арбат, 15",
    "lat": 55.7529,
    "lon": 37.5928,
    "schedule": "ПН-ВС 09:00–21:00",
    "phone": "+7 495 777-88-99",
    "metro": "Арбатская",
    "is_24h": false,
    "has_parking": true,
    "services": ["самовывоз", "доставка курьером", "консультация фармацевта"]
  },
  {
    "id": "ph7",
    "name": "ГОРЗДРАВ Аптека №555 (у м. Таганская)",
    "region_id": "MOW",
    "address": "Марксистская ул., 3",
    "lat": 55.7393,
    "lon": 37.6527,
    "schedule": "ПН-ВС 08:00–22:00",
    "phone": "+7 495 666-77-88",
    "metro": "Таганская",
    "is_24h": false,
    "has_parking": false,
    "services": ["самовывоз", "рецептурный отдел"]
  },
  {
    "id": "ph8",
    "name": "ГОРЗДРАВ Аптека №999 (у м. Парк культуры)",
    "region_id": "MOW",
    "address": "Комсомольский проспект, 7",
    "lat": 55.7334,
    "lon": 37.5876,
    "schedule": "Круглосуточно",
    "phone": "+7 495 222-11-00",
    "metro": "Парк культуры",
    "is_24h": true,
    "has_parking": true,
    "services": ["самовывоз", "круглосуточная выдача", "доставка курьером"]
  }
]
